{
  "mountains": [
    {
      "id": 1,
      "name": "한라산",
      "height": 1950,
      "latitude": 33.362500,
      "longitude": 126.533694,
      "address": "제주특별자치도 제주시 아라동"
    },
    {
      "id": 2,
      "name": "지리산",
      "height": 1915,
      "latitude": 35.337139,
      "longitude": 127.730750,
      "address": "경상남도 산청군 시천면"
    },
    {
      "id": 3,
      "name": "설악산",
      "height": 1708,
      "latitude": 38.119194,
      "longitude": 128.465750,
      "address": "강원도 속초시 설악동"
    },
    {
      "id": 4,
      "name": "덕유산",
      "height": 1614,
      "latitude": 35.859889,
      "longitude": 127.741194,
      "address": "전라북도 무주군 설천면"
    },
    {
      "id": 5,
      "name": "오대산",
      "height": 1563,
      "latitude": 37.799056,
      "longitude": 128.561944,
      "address": "강원도 평창군 진부면"
    },
    {
      "id": 6,
      "name": "태백산",
      "height": 1567,
      "latitude": 37.100000,
      "longitude": 128.916667,
      "address": "강원도 태백시 혈동"
    },
    {
      "id": 7,
      "name": "소백산",
      "height": 1439,
      "latitude": 36.955556,
      "longitude": 128.475556,
      "address": "경상북도 영주시 풍기읍"
    },
    {
      "id": 8,
      "name": "속리산",
      "height": 1058,
      "latitude": 36.536389,
      "longitude": 127.867500,
      "address": "충청북도 보은군 속리산면"
    },
    {
      "id": 9,
      "name": "계룡산",
      "height": 845,
      "latitude": 36.356944,
      "longitude": 127.220833,
      "address": "충청남도 공주시 반포면"
    },
    {
      "id": 10,
      "name": "내장산",
      "height": 763,
      "latitude": 35.479722,
      "longitude": 126.889722,
      "address": "전라북도 정읍시 내장동"
    },
    {
      "id": 11,
      "name": "가야산",
      "height": 1430,
      "latitude": 35.822778,
      "longitude": 128.116944,
      "address": "경상남도 합천군 가야면"
    },
    {
      "id": 12,
      "name": "월악산",
      "height": 1097,
      "latitude": 36.889167,
      "longitude": 128.088611,
      "address": "충청북도 제천시 한수면"
    },
    {
      "id": 13,
      "name": "주왕산",
      "height": 720,
      "latitude": 36.381944,
      "longitude": 129.166389,
      "address": "경상북도 청송군 부동면"
    },
    {
      "id": 14,
      "name": "북한산",
      "height": 836,
      "latitude": 37.659444,
      "longitude": 126.995278,
      "address": "서울특별시 강북구 우이동"
    },
    {
      "id": 15,
      "name": "치악산",
      "height": 1288,
      "latitude": 37.301389,
      "longitude": 128.056667,
      "address": "강원도 원주시 소초면"
    },
    {
      "id": 16,
      "name": "월출산",
      "height": 809,
      "latitude": 34.773889,
      "longitude": 126.687500,
      "address": "전라남도 영암군 영암읍"
    },
    {
      "id": 17,
      "name": "무등산",
      "height": 1187,
      "latitude": 35.134167,
      "longitude": 126.988333,
      "address": "광주광역시 동구 운림동"
    },
    {
      "id": 18,
      "name": "관악산",
      "height": 632,
      "latitude": 37.444722,
      "longitude": 126.963889,
      "address": "서울특별시 관악구 신림동"
    },
    {
      "id": 19,
      "name": "금산",
      "height": 704,
      "latitude": 34.764167,
      "longitude": 127.743056,
      "address": "전라남도 여수시 선원동"
    },
    {
      "id": 20,
      "name": "팔공산",
      "height": 1192,
      "latitude": 35.988889,
      "longitude": 128.685833,
      "address": "대구광역시 동구 팔공동"
    },
    {
      "id": 21,
      "name": "대둔산",
      "height": 878,
      "latitude": 36.121389,
      "longitude": 127.305833,
      "address": "충청남도 논산시 벌곡면"
    },
    {
      "id": 22,
      "name": "모악산",
      "height": 793,
      "latitude": 35.729722,
      "longitude": 127.074722,
      "address": "전라북도 김제시 금산면"
    },
    {
      "id": 23,
      "name": "백운산",
      "height": 1279,
      "latitude": 35.103611,
      "longitude": 127.634722,
      "address": "전라남도 광양시 옥룡면"
    },
    {
      "id": 24,
      "name": "천관산",
      "height": 723,
      "latitude": 34.543889,
      "longitude": 126.921944,
      "address": "전라남도 장흥군 관산읍"
    },
    {
      "id": 25,
      "name": "청량산",
      "height": 810,
      "latitude": 36.147500,
      "longitude": 129.066389,
      "address": "경상북도 봉화군 명호면"
    },
    {
      "id": 26,
      "name": "금오산",
      "height": 976,
      "latitude": 36.116667,
      "longitude": 128.316667,
      "address": "경상북도 구미시 남통동"
    },
    {
      "id": 27,
      "name": "변산",
      "height": 508,
      "latitude": 35.616667,
      "longitude": 126.533333,
      "address": "전라북도 부안군 변산면"
    },
    {
      "id": 28,
      "name": "화악산",
      "height": 1468,
      "latitude": 37.899444,
      "longitude": 127.516667,
      "address": "강원도 가평군 북면"
    },
    {
      "id": 29,
      "name": "대암산",
      "height": 1304,
      "latitude": 38.116667,
      "longitude": 128.116667,
      "address": "강원도 인제군 서화면"
    },
    {
      "id": 30,
      "name": "두륜산",
      "height": 703,
      "latitude": 34.483333,
      "longitude": 126.616667,
      "address": "전라남도 해남군 삼산면"
    },
    {
      "id": 31,
      "name": "구봉산",
      "height": 456,
      "latitude": 35.083333,
      "longitude": 129.033333,
      "address": "부산광역시 영도구 동삼동"
    },
    {
      "id": 32,
      "name": "마이산",
      "height": 685,
      "latitude": 35.733333,
      "longitude": 127.416667,
      "address": "전라북도 진안군 진안읍"
    },
    {
      "id": 33,
      "name": "운문산",
      "height": 1187,
      "latitude": 35.616667,
      "longitude": 129.016667,
      "address": "경상북도 청도군 운문면"
    },
    {
      "id": 34,
      "name": "천성산",
      "height": 922,
      "latitude": 35.283333,
      "longitude": 129.083333,
      "address": "부산광역시 금정구 청룡동"
    },
    {
      "id": 35,
      "name": "방장산",
      "height": 733,
      "latitude": 35.433333,
      "longitude": 126.616667,
      "address": "전라남도 장성군 북하면"
    },
    {
      "id": 36,
      "name": "대야산",
      "height": 928,
      "latitude": 36.183333,
      "longitude": 128.666667,
      "address": "경상북도 문경시 가은읍"
    },
    {
      "id": 37,
      "name": "문수산",
      "height": 688,
      "latitude": 35.533333,
      "longitude": 129.333333,
      "address": "울산광역시 울주군 서생면"
    },
    {
      "id": 38,
      "name": "민주지산",
      "height": 1242,
      "latitude": 36.850000,
      "longitude": 127.883333,
      "address": "충청북도 영동군 상촌면"
    },
    {
      "id": 39,
      "name": "계방산",
      "height": 1577,
      "latitude": 37.733333,
      "longitude": 128.516667,
      "address": "강원도 평창군 도암면"
    },
    {
      "id": 40,
      "name": "연화산",
      "height": 650,
      "latitude": 34.983333,
      "longitude": 128.066667,
      "address": "경상남도 사천시 실안동"
    },
    {
      "id": 41,
      "name": "대덕산",
      "height": 1307,
      "latitude": 37.266667,
      "longitude": 128.450000,
      "address": "강원도 영월군 중동면"
    },
    {
      "id": 42,
      "name": "황매산",
      "height": 1108,
      "latitude": 35.500000,
      "longitude": 127.983333,
      "address": "경상남도 합천군 가회면"
    },
    {
      "id": 43,
      "name": "가리왕산",
      "height": 1561,
      "latitude": 37.466667,
      "longitude": 128.566667,
      "address": "강원도 정선군 정선읍"
    },
    {
      "id": 44,
      "name": "명성산",
      "height": 922,
      "latitude": 37.483333,
      "longitude": 127.333333,
      "address": "경기도 포천시 영북면"
    },
    {
      "id": 45,
      "name": "기백산",
      "height": 1331,
      "latitude": 36.883333,
      "longitude": 128.566667,
      "address": "경상북도 영주시 부석면"
    },
    {
      "id": 46,
      "name": "응봉산",
      "height": 1014,
      "latitude": 36.950000,
      "longitude": 128.816667,
      "address": "경상북도 봉화군 춘양면"
    },
    {
      "id": 47,
      "name": "칠갑산",
      "height": 561,
      "latitude": 36.416667,
      "longitude": 126.883333,
      "address": "충청남도 청양군 대치면"
    },
    {
      "id": 48,
      "name": "희양산",
      "height": 966,
      "latitude": 36.700000,
      "longitude": 128.166667,
      "address": "경상북도 문경시 문경읍"
    },
    {
      "id": 49,
      "name": "장안산",
      "height": 1237,
      "latitude": 35.366667,
      "longitude": 127.616667,
      "address": "전라남도 구례군 산동면"
    },
    {
      "id": 50,
      "name": "황석산",
      "height": 1190,
      "latitude": 35.700000,
      "longitude": 127.750000,
      "address": "전라북도 남원시 운봉읍"
    },
    {
      "id": 51,
      "name": "도락산",
      "height": 964,
      "latitude": 37.016667,
      "longitude": 127.316667,
      "address": "경기도 안성시 금광면"
    },
    {
      "id": 52,
      "name": "화왕산",
      "height": 756,
      "latitude": 35.516667,
      "longitude": 128.516667,
      "address": "경상남도 창녕군 창녕읍"
    },
    {
      "id": 53,
      "name": "대복산",
      "height": 1433,
      "latitude": 37.466667,
      "longitude": 128.733333,
      "address": "강원도 정선군 임계면"
    },
    {
      "id": 54,
      "name": "불모산",
      "height": 799,
      "latitude": 35.250000,
      "longitude": 129.083333,
      "address": "부산광역시 금정구 청룡동"
    },
    {
      "id": 55,
      "name": "비슬산",
      "height": 1084,
      "latitude": 35.700000,
      "longitude": 128.516667,
      "address": "대구광역시 달성군 유가면"
    },
    {
      "id": 56,
      "name": "백암산",
      "height": 741,
      "latitude": 34.750000,
      "longitude": 127.616667,
      "address": "전라남도 순천시 황전면"
    },
    {
      "id": 57,
      "name": "용문산",
      "height": 1157,
      "latitude": 37.550000,
      "longitude": 127.583333,
      "address": "경기도 양평군 용문면"
    },
    {
      "id": 58,
      "name": "천태산",
      "height": 723,
      "latitude": 36.850000,
      "longitude": 126.933333,
      "address": "충청남도 천안시 동남구"
    },
    {
      "id": 59,
      "name": "덕항산",
      "height": 1070,
      "latitude": 35.850000,
      "longitude": 127.600000,
      "address": "전라북도 무주군 무풍면"
    },
    {
      "id": 60,
      "name": "감악산",
      "height": 675,
      "latitude": 37.933333,
      "longitude": 126.933333,
      "address": "경기도 파주시 적성면"
    },
    {
      "id": 61,
      "name": "운악산",
      "height": 935,
      "latitude": 37.866667,
      "longitude": 127.316667,
      "address": "경기도 가평군 조종면"
    },
    {
      "id": 62,
      "name": "신불산",
      "height": 1159,
      "latitude": 35.533333,
      "longitude": 129.066667,
      "address": "울산광역시 울주군 상북면"
    },
    {
      "id": 63,
      "name": "대화산",
      "height": 925,
      "latitude": 36.766667,
      "longitude": 128.200000,
      "address": "경상북도 예천군 보문면"
    },
    {
      "id": 64,
      "name": "미륵산",
      "height": 461,
      "latitude": 34.716667,
      "longitude": 127.816667,
      "address": "전라남도 여수시 미평동"
    },
    {
      "id": 65,
      "name": "일월산",
      "height": 1219,
      "latitude": 36.900000,
      "longitude": 129.166667,
      "address": "경상북도 영양군 일월면"
    },
    {
      "id": 66,
      "name": "고봉산",
      "height": 877,
      "latitude": 37.716667,
      "longitude": 127.150000,
      "address": "경기도 양주시 장흥면"
    },
    {
      "id": 67,
      "name": "대금산",
      "height": 611,
      "latitude": 36.883333,
      "longitude": 126.600000,
      "address": "충청남도 예산군 대흥면"
    },
    {
      "id": 68,
      "name": "무학산",
      "height": 761,
      "latitude": 35.183333,
      "longitude": 128.583333,
      "address": "경상남도 창원시 마산합포구"
    },
    {
      "id": 69,
      "name": "수락산",
      "height": 638,
      "latitude": 37.676667,
      "longitude": 127.098333,
      "address": "서울특별시 노원구 상계동"
    },
    {
      "id": 70,
      "name": "삼악산",
      "height": 654,
      "latitude": 37.866667,
      "longitude": 127.766667,
      "address": "강원도 춘천시 서면"
    },
    {
      "id": 71,
      "name": "청계산",
      "height": 618,
      "latitude": 37.383333,
      "longitude": 127.083333,
      "address": "경기도 성남시 수정구"
    },
    {
      "id": 72,
      "name": "대부산",
      "height": 936,
      "latitude": 36.766667,
      "longitude": 127.883333,
      "address": "충청북도 보은군 마로면"
    },
    {
      "id": 73,
      "name": "배후령",
      "height": 1259,
      "latitude": 38.200000,
      "longitude": 128.383333,
      "address": "강원도 속초시 설악동"
    },
    {
      "id": 74,
      "name": "성인봉",
      "height": 984,
      "latitude": 34.683333,
      "longitude": 125.416667,
      "address": "전라남도 신안군 흑산면"
    },
    {
      "id": 75,
      "name": "어래산",
      "height": 1064,
      "latitude": 37.616667,
      "longitude": 128.533333,
      "address": "강원도 강릉시 왕산면"
    },
    {
      "id": 76,
      "name": "고대산",
      "height": 832,
      "latitude": 38.133333,
      "longitude": 127.166667,
      "address": "경기도 연천군 신서면"
    },
    {
      "id": 77,
      "name": "함백산",
      "height": 1573,
      "latitude": 37.166667,
      "longitude": 128.916667,
      "address": "강원도 태백시 창죽동"
    },
    {
      "id": 78,
      "name": "금정산",
      "height": 801,
      "latitude": 35.283333,
      "longitude": 129.050000,
      "address": "부산광역시 금정구 금성동"
    },
    {
      "id": 79,
      "name": "화학산",
      "height": 825,
      "latitude": 35.633333,
      "longitude": 126.683333,
      "address": "전라북도 부안군 보안면"
    },
    {
      "id": 80,
      "name": "고모산",
      "height": 936,
      "latitude": 36.783333,
      "longitude": 128.966667,
      "address": "경상북도 영양군 수비면"
    },
    {
      "id": 81,
      "name": "망경대산",
      "height": 923,
      "latitude": 35.583333,
      "longitude": 127.700000,
      "address": "전라북도 남원시 주천면"
    },
    {
      "id": 82,
      "name": "봉화산",
      "height": 479,
      "latitude": 37.583333,
      "longitude": 127.100000,
      "address": "서울특별시 중랑구 묵동"
    },
    {
      "id": 83,
      "name": "보현산",
      "height": 1124,
      "latitude": 36.166667,
      "longitude": 129.066667,
      "address": "경상북도 영천시 화북면"
    },
    {
      "id": 84,
      "name": "황장산",
      "height": 1087,
      "latitude": 35.066667,
      "longitude": 127.583333,
      "address": "전라남도 구례군 토지면"
    },
    {
      "id": 85,
      "name": "가현산",
      "height": 1084,
      "latitude": 36.983333,
      "longitude": 128.500000,
      "address": "경상북도 봉화군 법전면"
    },
    {
      "id": 86,
      "name": "대둔산",
      "height": 878,
      "latitude": 36.116667,
      "longitude": 127.300000,
      "address": "충청남도 논산시 벌곡면"
    },
    {
      "id": 87,
      "name": "국망봉",
      "height": 1421,
      "latitude": 37.166667,
      "longitude": 128.916667,
      "address": "강원도 태백시 화전동"
    },
    {
      "id": 88,
      "name": "당산",
      "height": 827,
      "latitude": 35.650000,
      "longitude": 127.600000,
      "address": "전라북도 임실군 삼계면"
    },
    {
      "id": 89,
      "name": "형제봉",
      "height": 1178,
      "latitude": 35.333333,
      "longitude": 127.500000,
      "address": "전라남도 구례군 산동면"
    },
    {
      "id": 90,
      "name": "운길산",
      "height": 611,
      "latitude": 37.616667,
      "longitude": 127.316667,
      "address": "경기도 남양주시 조안면"
    },
    {
      "id": 91,
      "name": "천마산",
      "height": 812,
      "latitude": 35.266667,
      "longitude": 128.633333,
      "address": "경상남도 창원시 마산합포구"
    },
    {
      "id": 92,
      "name": "백암산",
      "height": 1004,
      "latitude": 36.900000,
      "longitude": 128.300000,
      "address": "충청북도 단양군 영춘면"
    },
    {
      "id": 93,
      "name": "백운산",
      "height": 903,
      "latitude": 37.516667,
      "longitude": 127.316667,
      "address": "경기도 양평군 단월면"
    },
    {
      "id": 94,
      "name": "도봉산",
      "height": 740,
      "latitude": 37.700000,
      "longitude": 127.016667,
      "address": "서울특별시 도봉구 도봉동"
    },
    {
      "id": 95,
      "name": "구병산",
      "height": 876,
      "latitude": 36.533333,
      "longitude": 128.433333,
      "address": "경상북도 상주시 은척면"
    },
    {
      "id": 96,
      "name": "옥석산",
      "height": 824,
      "latitude": 35.966667,
      "longitude": 128.583333,
      "address": "경상북도 칠곡군 지천면"
    },
    {
      "id": 97,
      "name": "황악산",
      "height": 1111,
      "latitude": 36.116667,
      "longitude": 128.516667,
      "address": "경상북도 김천시 대항면"
    },
    {
      "id": 98,
      "name": "문수산",
      "height": 632,
      "latitude": 37.483333,
      "longitude": 126.933333,
      "address": "경기도 안양시 만안구"
    },
    {
      "id": 99,
      "name": "대모산",
      "height": 293,
      "latitude": 37.466667,
      "longitude": 127.083333,
      "address": "서울특별시 강남구 개포동"
    },
    {
      "id": 100,
      "name": "명지산",
      "height": 1267,
      "latitude": 37.950000,
      "longitude": 127.416667,
      "address": "경기도 가평군 북면"
    }
  ]
}